City_ID,City,Country,Date,Lat,Lng,Max Temp,Humidity,Cloudiness,Wind Speed
0,Sitka,US,1601340918,57.05,-135.33,13.0,71,75,3.6
1,Chapayevka,UA,1601340919,47.47,36.35,16.72,55,100,6.55
2,Saint Paul Harbor,US,1601340919,57.79,-152.41,13.0,50,1,5.7
3,Bluff,NZ,1601340919,-46.6,168.33,3.89,69,99,8.94
4,Vaini,TO,1601340919,-21.2,-175.2,26.0,78,75,4.1
5,Isiolo,KE,1601340920,0.35,37.58,19.69,71,18,2.63
6,Klaksvík,FO,1601340920,62.23,-6.59,9.0,93,0,4.1
7,Haines Junction,CA,1601340920,60.75,-137.51,5.77,71,0,5.1
8,Burnie,AU,1601340920,-41.07,145.92,11.67,73,100,4.02
9,Vao,NC,1601340920,-22.67,167.48,19.97,80,100,9.06
10,Jamestown,US,1601340921,42.1,-79.24,21.67,64,20,4.6
11,Novikovo,RU,1601340921,51.15,37.89,12.58,41,100,5.03
12,Traverse City,US,1601340921,44.76,-85.62,14.0,87,75,2.1
13,Khatanga,RU,1601340921,71.97,102.5,-1.42,96,100,5.16
14,Saint-Philippe,RE,1601340922,-21.36,55.77,21.0,73,35,3.1
15,Banda Aceh,ID,1601340922,5.56,95.32,27.26,71,100,3.26
16,Rikitea,PF,1601340922,-23.12,-134.97,21.98,89,100,8.88
17,Hilo,US,1601340922,19.73,-155.09,29.0,66,1,5.1
18,Ushuaia,AR,1601340923,-54.8,-68.3,0.0,92,20,4.6
19,Tieling,CN,1601340923,42.29,123.84,13.32,63,100,3.92
20,Riberalta,BO,1601340923,-10.98,-66.1,23.52,90,100,2.01
21,Igurusi,TZ,1601340924,-8.85,33.85,16.59,77,97,0.7
22,Severo-Kuril'sk,RU,1601340924,50.68,156.12,10.33,84,99,2.96
23,Kaeo,NZ,1601340924,-35.1,173.78,17.78,64,68,4.02
24,Olafsvik,IS,1601340924,64.89,-23.71,2.75,84,99,7.13
25,Egvekinot,RU,1601340924,66.32,-179.17,2.24,75,0,0.6
26,Qui Nhon,VN,1601340880,13.77,109.23,27.87,72,100,2.86
27,Vila Franca do Campo,PT,1601340925,37.72,-25.43,20.0,88,40,4.6
28,Grand Gaube,MU,1601340925,-20.01,57.66,22.78,77,100,3.13
29,Manta,EC,1601340925,-0.95,-80.73,24.0,73,20,5.1
30,New Norfolk,AU,1601340736,-42.78,147.06,15.0,58,0,0.89
31,Atuona,PF,1601340926,-9.8,-139.03,25.61,73,0,6.0
32,Busselton,AU,1601340926,-33.65,115.33,15.56,92,96,0.89
33,Tuktoyaktuk,CA,1601340927,69.45,-133.04,2.0,93,90,3.6
34,Lavrentiya,RU,1601340927,65.58,-171.0,2.71,76,96,0.46
35,Oktyabr'skiy,RU,1601340927,54.48,53.47,8.01,79,0,0.65
36,La Asuncion,VE,1601340927,11.03,-63.86,27.0,94,100,4.6
37,Sargatskoye,RU,1601340928,55.61,73.5,3.52,85,0,5.98
38,Mbuji-Mayi,CD,1601340928,-6.15,23.6,21.45,91,100,1.63
39,Korsakov,RU,1601340929,46.63,142.78,20.0,68,40,7.0
40,Zwedru,LR,1601340929,6.07,-8.13,22.02,98,100,0.65
41,Mataura,NZ,1601340929,-46.19,168.86,3.89,69,100,8.94
42,Bethel,US,1601340929,41.37,-73.41,19.44,96,0,2.55
43,Albany,US,1601340930,42.6,-73.97,22.78,84,0,3.35
44,Yulara,AU,1601340930,-25.24,130.99,23.0,64,0,3.1
45,Port Elizabeth,ZA,1601340930,-33.92,25.57,13.0,66,21,6.7
46,Talnakh,RU,1601340931,69.49,88.4,-1.0,100,90,4.0
47,Bahir Dar,ET,1601340931,11.59,37.39,15.08,84,4,1.5
48,Saldanha,ZA,1601340931,-33.01,17.94,7.0,81,0,1.0
49,Tuatapere,NZ,1601340931,-46.13,167.68,3.89,69,71,8.94
50,Tura,IN,1601340932,25.52,90.22,24.14,92,0,1.19
51,General Escobedo,MX,1601340932,25.82,-100.33,22.0,53,75,6.2
52,Bredasdorp,ZA,1601340932,-34.53,20.04,11.0,76,68,2.6
53,Luanda,AO,1601340932,-8.84,13.23,22.0,94,20,3.6
54,Kaitangata,NZ,1601340933,-46.28,169.85,1.11,85,100,3.58
55,Kungurtug,RU,1601340933,50.6,97.52,2.34,71,21,0.1
56,Tocopilla,CL,1601340933,-22.09,-70.2,16.25,61,2,1.33
57,Punta Arenas,CL,1601340933,-53.15,-70.92,1.0,55,20,3.6
58,Cabo San Lucas,MX,1601340934,22.89,-109.91,32.0,43,5,1.5
59,Broome,US,1601340934,42.25,-75.83,21.67,73,75,4.6
60,Mbale,UG,1601340934,1.08,34.17,18.5,77,60,0.55
61,Sunagawa,JP,1601340934,43.49,141.91,17.22,67,20,4.6
62,Sioux Lookout,CA,1601340934,50.1,-91.92,10.0,93,90,5.7
63,Adelaide,AU,1601340824,-34.93,138.6,20.0,28,100,7.7
64,Port Alfred,ZA,1601340935,-33.59,26.89,12.99,69,0,7.0
65,Arraial do Cabo,BR,1601340935,-22.97,-42.03,24.0,94,100,4.1
66,Avera,US,1601340935,33.19,-82.53,23.33,85,75,2.6
67,Nhulunbuy,AU,1601340936,-12.23,136.77,29.0,58,40,7.2
68,Chui,UY,1601340936,-33.7,-53.46,9.76,83,0,1.88
69,Namikupa,TZ,1601340936,-10.83,39.6,18.72,97,69,0.89
70,Gisborne,NZ,1601340936,-38.65,178.0,16.67,37,0,4.02
71,Kiunga,PG,1601340937,-6.12,141.29,30.78,61,44,1.81
72,Upernavik,GL,1601340937,72.79,-56.15,-3.71,91,67,3.25
73,Saint-Augustin,CA,1601340937,51.23,-58.65,16.13,89,100,6.76
74,Qaanaaq,GL,1601340938,77.48,-69.36,-10.59,77,65,3.96
75,Hervey Bay,AU,1601340938,-25.3,152.85,25.0,46,40,7.7
76,Hasaki,JP,1601340938,35.73,140.83,22.22,60,75,7.2
77,Lebu,CL,1601340938,-37.62,-73.65,8.71,81,100,1.3
78,Hermanus,ZA,1601340939,-34.42,19.23,9.44,94,80,0.45
79,Baiyin,CN,1601340939,36.56,104.21,9.0,93,0,2.0
80,Castro,BR,1601340939,-24.79,-50.01,17.15,90,0,0.48
81,Saint Anthony,US,1601340939,45.02,-93.22,11.67,76,90,3.1
82,Iranshahr,IR,1601340940,27.2,60.68,23.33,42,0,0.88
83,Belmonte,BR,1601340941,-15.86,-38.88,24.0,83,40,2.1
84,Darhan,MN,1601340941,49.49,105.92,6.89,60,62,2.5
85,Ixtapa,MX,1601340941,20.7,-105.2,32.0,70,75,1.03
86,Anadyr,RU,1601340941,64.75,177.48,7.0,70,75,4.0
87,Barrow,US,1601340942,71.29,-156.79,-1.0,80,90,6.7
88,Najrān,SA,1601340942,17.49,44.13,21.0,28,1,1.76
89,Esperance,AU,1601340942,-33.87,121.9,15.0,100,90,5.7
90,Hearst,CA,1601340942,49.68,-83.67,11.36,96,100,0.93
91,George Town,MY,1601340858,5.41,100.34,27.0,94,20,2.1
92,Vila Velha,BR,1601340943,-20.33,-40.29,26.67,78,0,5.7
93,Nagato,JP,1601340943,34.38,131.2,22.0,64,20,3.6
94,Monroe,US,1601340943,43.15,-77.68,24.0,53,90,3.1
95,Prince Rupert,CA,1601340944,54.32,-130.32,13.0,93,40,1.05
96,North Bend,US,1601340944,43.41,-124.22,37.78,26,1,3.6
97,Qingquan,CN,1601340944,30.45,115.26,20.26,91,100,0.22
98,Kruisfontein,ZA,1601340944,-34.0,24.73,11.67,66,29,0.89
99,Kutum,SD,1601340945,14.2,24.67,24.24,61,0,0.9
100,Iralaya,HN,1601340945,15.0,-83.23,29.0,79,40,4.1
101,Torbay,CA,1601340946,47.67,-52.73,17.78,93,90,8.2
102,Pevek,RU,1601340946,69.7,170.31,3.88,73,96,5.8
103,Conceição do Araguaia,BR,1601340946,-8.26,-49.26,29.96,39,0,1.9
104,Heinola,FI,1601340946,61.21,26.04,10.56,87,90,3.6
105,Oddur,SO,1601340947,4.12,43.89,21.81,84,10,4.24
106,Butaritari,KI,1601340947,3.07,172.79,28.08,71,92,5.43
107,Lorengau,PG,1601340947,-2.02,147.27,29.72,66,50,3.67
108,Kulhudhuffushi,MV,1601340947,6.62,73.07,27.92,73,98,3.35
109,Howard Springs,AU,1601340948,-12.5,131.05,32.78,62,40,1.5
110,Forsytheganj,BY,1601340948,52.63,29.73,10.0,72,100,3.11
111,Maragogi,BR,1601340948,-9.01,-35.22,23.86,85,30,4.49
112,Chenghai,CN,1601340949,23.46,116.77,25.0,78,75,3.0
113,Santa Maria,BR,1601340949,-29.68,-53.81,14.0,87,0,1.0
114,Mahébourg,MU,1601340661,-20.41,57.7,23.0,83,75,5.1
115,Dikson,RU,1601340949,73.51,80.55,4.16,93,100,11.47
116,Grootfontein,NA,1601340950,-19.57,18.12,16.39,19,74,5.99
117,Avarua,CK,1601340950,-21.21,-159.78,26.0,69,4,9.8
118,Pangnirtung,CA,1601340950,66.15,-65.71,-2.26,92,94,0.24
119,Hīt,IQ,1601340950,33.64,42.83,26.08,25,0,5.09
120,Lima,PE,1601340860,-12.04,-77.03,16.11,82,90,5.1
121,Garoowe,SO,1601340951,8.41,48.48,23.48,76,0,5.02
122,Puerto Ayora,EC,1601340952,-0.74,-90.35,20.0,85,96,2.24
123,Port Augusta,AU,1601340952,-32.5,137.77,18.0,42,75,7.7
124,Faya,SA,1601340952,18.39,42.45,18.0,27,85,1.6
125,Malakal,SS,1601340953,9.53,31.66,22.48,92,87,2.35
126,Maumere,ID,1601340953,-8.62,122.21,28.97,65,0,0.26
127,Zelenogorskiy,RU,1601340953,55.03,87.0,6.0,75,90,4.0
128,Husavik,IS,1601340953,66.04,-17.34,3.0,69,90,5.7
129,Jega,NG,1601340954,12.22,4.38,26.93,76,100,4.26
130,Hong Kong,HK,1601340852,22.29,114.16,28.33,83,96,0.45
131,Makokou,GA,1601340954,0.57,12.86,19.71,89,94,0.91
132,Frankenberg,DE,1601340954,51.07,8.8,8.33,93,20,1.0
133,Cururupu,BR,1601340955,-1.83,-44.87,24.3,87,0,1.9
134,Mahibadhoo,MV,1601340955,3.78,72.97,27.96,73,100,3.46
135,Saint George,US,1601340955,37.1,-113.58,30.56,10,1,2.1
136,Pontes e Lacerda,BR,1601340955,-15.23,-59.34,22.62,88,100,0.8
137,Katsuura,JP,1601340955,35.13,140.3,21.67,64,75,5.7
138,Durban,ZA,1601340915,-29.86,31.03,14.44,93,90,2.6
139,Margate,GB,1601340956,51.38,1.39,12.22,74,100,0.45
140,Kapaa,US,1601340956,22.08,-159.32,30.0,62,20,4.1
141,Lancaster,US,1601340957,40.25,-76.25,23.33,86,0,0.89
142,Izumo,JP,1601340957,35.37,132.77,19.0,72,20,1.5
143,Aiken,US,1601340957,33.58,-81.6,22.78,94,90,2.6
144,Cape Town,ZA,1601340957,-33.93,18.42,11.67,87,9,1.0
145,Voh,NC,1601340958,-20.97,164.7,22.67,71,77,6.61
146,Tabou,CI,1601340958,4.42,-7.35,24.8,91,89,3.53
147,East London,ZA,1601340899,-33.02,27.91,15.51,59,74,4.81
148,Kuruman,ZA,1601340958,-27.45,23.43,4.44,26,0,4.72
149,Tessalit,ML,1601340959,20.2,1.01,31.08,18,0,5.55
150,Rocha,UY,1601340959,-34.48,-54.33,9.02,80,0,2.8
151,Hithadhoo,MV,1601340959,-0.6,73.08,28.59,68,95,3.76
152,Hambantota,LK,1601340960,6.12,81.12,25.0,100,40,2.1
153,Saskylakh,RU,1601340960,71.92,114.08,-1.63,96,100,6.63
154,Srednekolymsk,RU,1601340960,67.45,153.68,11.09,53,100,3.32
155,Kalmunai,LK,1601340960,7.42,81.82,26.19,82,99,2.75
156,San Juan del Cesar,CO,1601340961,10.77,-73.0,24.66,87,92,2.36
157,São Filipe,CV,1601340961,14.9,-24.5,26.99,81,15,5.96
158,San Michele al Tagliamento,IT,1601340961,45.76,12.99,10.0,91,100,2.57
159,Thompson,CA,1601340962,55.74,-97.86,6.0,93,90,2.1
160,Ponta do Sol,PT,1601340962,32.67,-17.1,20.0,82,75,6.2
161,Lüderitz,NA,1601340963,-26.65,15.16,12.99,56,0,10.6
162,Calatayud,ES,1601340963,41.35,-1.64,13.0,71,100,0.61
163,Nuevo Progreso,MX,1601340963,23.17,-97.95,28.33,64,98,1.79
164,Reconquista,AR,1601340964,-29.15,-59.65,14.97,65,0,3.76
165,Cayenne,GF,1601340964,4.93,-52.33,26.0,88,27,3.1
166,Águas Vermelhas,BR,1601340964,-15.75,-41.46,19.52,44,0,1.46
167,Morondava,MG,1601340964,-20.28,44.28,23.24,63,0,1.4
168,Dyurtyuli,RU,1601340964,55.49,54.87,8.69,84,0,1.03
169,Mar del Plata,AR,1601340965,-38.0,-57.56,10.56,93,0,3.1
170,Port-Cartier,CA,1601340965,50.03,-66.87,13.33,100,75,2.1
171,Qaqortoq,GL,1601340965,60.72,-46.03,0.0,84,0,1.5
172,Ostrów Mazowiecka,PL,1601340965,52.8,21.9,10.56,73,100,3.67
173,Jinchang,CN,1601340966,38.5,102.17,13.51,70,58,2.64
174,Ahipara,NZ,1601340966,-35.17,173.17,14.8,59,38,7.38
175,Xinzhou,CN,1601340966,38.41,112.73,15.79,76,97,1.42
176,Balkanabat,TM,1601340966,39.51,54.37,13.44,35,0,2.78
177,Poum,NC,1601340967,-20.23,164.02,21.92,83,100,11.24
178,Kirillov,RU,1601340967,59.86,38.38,11.0,71,40,4.0
179,Wahiawā,US,1601340967,21.5,-158.02,32.0,43,1,3.1
180,Nishihara,JP,1601340967,26.18,127.76,27.0,74,40,4.6
181,Beringovskiy,RU,1601340968,63.05,179.32,6.86,61,0,2.02
182,Atar,MR,1601340968,20.52,-13.05,30.38,26,0,2.5
183,Ürümqi,CN,1601340968,43.8,87.6,10.0,53,67,5.0
184,Geraldton,AU,1601340968,-28.77,114.6,17.0,72,0,2.6
185,Norman Wells,CA,1601340969,65.28,-126.83,7.0,81,75,5.7
186,Tautira,PF,1601340969,-17.73,-149.15,28.0,69,75,2.6
187,La Santisima Trinidad,BO,1601340969,-14.83,-64.9,22.61,90,100,1.3
188,Dumai,ID,1601340928,1.68,101.45,25.62,83,100,1.62
189,Millinocket,US,1601340920,45.66,-68.71,20.0,94,90,2.1
190,San Patricio,MX,1601340970,19.22,-104.7,30.0,79,75,4.1
191,Bereda,ES,1601340970,43.27,-7.54,10.0,100,100,0.45
192,Fairbanks,US,1601340970,64.84,-147.72,11.0,57,40,2.1
193,Klyuchi,RU,1601340971,52.27,79.17,7.85,84,100,4.92
194,Longyearbyen,SJ,1601340971,78.22,15.64,4.0,86,75,5.1
195,Clyde River,CA,1601340971,70.47,-68.59,-1.0,86,90,9.3
196,Antofagasta,CL,1601340971,-23.65,-70.4,14.0,82,90,5.1
197,Jacareacanga,BR,1601340972,-6.22,-57.75,27.62,57,65,0.48
198,Verkhnevilyuysk,RU,1601340765,63.45,120.32,7.42,65,100,6.93
199,Ancud,CL,1601340973,-41.87,-73.82,9.44,93,100,0.89
200,Hobart,AU,1601340970,-42.88,147.33,15.0,62,20,3.6
201,Tongzi,CN,1601340974,28.78,105.09,18.45,92,100,0.97
202,Karratha,AU,1601340927,-20.74,116.85,29.07,19,41,5.97
203,Yar-Sale,RU,1601340974,66.83,70.83,2.57,89,97,4.43
204,Sørland,NO,1601340975,67.67,12.69,11.59,84,66,6.44
205,Russell,US,1601340975,32.35,-85.2,27.0,88,1,2.12
206,Carnarvon,AU,1601340901,-24.87,113.63,19.0,72,0,8.7
207,Port Hawkesbury,CA,1601340975,45.62,-61.35,21.0,88,90,4.6
208,Comodoro Rivadavia,AR,1601340976,-45.87,-67.5,10.0,71,90,6.7
209,Saint-Louis,SN,1601340976,16.33,-15.0,29.0,74,0,1.0
210,Ordynskoye,RU,1601340977,54.37,81.9,7.83,93,100,5.2
211,Jadu,LY,1601340977,31.95,12.03,21.04,77,96,3.38
212,Tungor,RU,1601340977,53.38,142.96,10.63,89,100,4.58
213,Vardø,NO,1601340977,70.37,31.11,9.18,88,0,4.59
214,Svobodnyy,RU,1601340978,51.4,128.13,10.11,60,2,4.97
215,Mayumba,GA,1601340978,-3.43,10.66,23.51,80,87,2.18
216,Steamboat Springs,US,1601340978,40.48,-106.83,11.11,15,1,4.1
217,Yangi Marg`ilon,UZ,1601340978,40.43,71.72,14.0,71,100,2.1
218,Kavieng,PG,1601340979,-2.57,150.8,28.48,68,29,1.73
219,Tazovsky,RU,1601340979,67.47,78.7,2.15,85,100,5.77
220,Taoudenni,ML,1601340979,22.68,-3.98,33.1,12,0,2.91
221,Maxixe,MZ,1601340979,-23.86,35.35,22.43,89,52,0.6
222,Cidreira,BR,1601340980,-30.18,-50.21,15.61,78,0,4.03
223,Adrar,MR,1601340980,20.5,-10.07,30.64,24,0,5.43
224,Markova,UA,1601340980,48.68,24.41,11.47,84,100,1.68
225,Provideniya,RU,1601340980,64.38,-173.3,4.0,69,75,3.0
226,Khudumelapye,BW,1601340981,-23.88,24.75,11.9,29,0,3.74
227,Nikolskoye,RU,1601340981,59.7,30.79,11.0,87,90,2.0
228,Arrondissement du Havre,FR,1601340981,49.58,0.33,16.0,93,90,5.7
229,Kitimat,CA,1601340981,54.05,-128.65,12.0,87,90,3.6
230,Matamoros,MX,1601340982,25.53,-103.25,30.0,35,75,8.36
231,Ponta Delgada,PT,1601340858,37.73,-25.67,20.0,88,40,4.6
232,Lagoa,PT,1601340982,39.05,-27.98,19.58,85,100,8.36
233,Sambava,MG,1601340983,-14.27,50.17,20.27,87,5,3.93
234,Dingle,PH,1601340983,11.0,122.67,29.45,72,12,0.46
235,Skellefteå,SE,1601340984,64.75,20.95,8.33,100,90,0.67
236,Bosaso,SO,1601340984,11.28,49.18,28.92,69,0,1.11
237,Lesozavodsk,RU,1601340984,45.48,133.42,13.49,75,100,3.29
238,Mt. Pleasant,US,1601340985,32.79,-79.86,25.0,100,90,2.6
239,Port Macquarie,AU,1601340878,-31.43,152.92,21.67,41,10,0.89
240,Sassandra,CI,1601340985,4.95,-6.08,23.8,94,81,1.92
241,Bukachacha,RU,1601340985,52.98,116.92,7.81,55,0,1.14
242,Vondrozo,MG,1601340986,-22.82,47.28,14.69,100,51,0.47
243,Tasiilaq,GL,1601340986,65.61,-37.64,0.0,95,100,2.6
244,Roebourne,AU,1601340986,-20.78,117.13,29.43,19,47,7.28
245,Catumbela,AO,1601340986,-12.43,13.55,21.36,80,0,1.39
246,Tezu,IN,1601340986,27.92,96.17,26.32,65,14,0.5
247,São João da Barra,BR,1601340987,-21.64,-41.05,23.47,89,2,2.67
248,Bengkulu,ID,1601340924,-3.8,102.27,26.2,81,0,4.39
249,Conde,BR,1601340987,-7.26,-34.91,24.0,94,40,2.6
250,Newcastle,AU,1601340799,-32.93,151.78,18.89,59,40,3.1
251,Buraidah,SA,1601340988,26.33,43.98,23.0,40,0,2.6
252,Ranot,TH,1601340988,7.78,100.32,27.48,74,41,1.96
253,Wanaka,NZ,1601340988,-44.7,169.15,2.65,72,96,6.54
254,Olinda,BR,1601340989,-8.01,-34.86,27.0,74,75,4.6
255,Souillac,MU,1601340989,-20.52,57.52,23.0,83,75,5.1
256,Vanderhoof,CA,1601340989,54.02,-124.02,11.15,93,100,0.49
257,The Pas,CA,1601340990,53.83,-101.25,10.0,71,90,5.1
258,Narsaq,GL,1601340990,60.92,-46.05,0.0,82,0,1.5
259,Santa Catalina,PH,1601340990,9.33,122.86,28.0,78,75,2.1
260,Lisala,CD,1601340990,2.15,21.52,19.88,98,100,0.87
261,Bali,ID,1601340788,-8.5,115.0,29.0,89,40,4.6
262,Praia da Vitória,PT,1601340991,38.73,-27.07,20.56,94,75,5.15
263,Ayní,TJ,1601340991,39.39,68.54,10.74,45,100,1.69
264,Puksoozero,RU,1601340991,62.59,40.61,5.83,94,0,2.3
265,Genhe,CN,1601340992,50.78,121.52,7.29,58,0,1.6
266,Langevåg,NO,1601340992,62.44,6.19,12.22,93,50,3.1
267,Baraguá,CU,1601340992,21.7,-78.63,25.12,88,35,3.93
268,Kathu,TH,1601340914,7.92,98.33,27.22,88,40,2.1
269,Eyl,SO,1601340992,7.98,49.82,25.56,81,87,7.0
270,Nara,JP,1601340993,34.69,135.8,25.0,73,75,1.0
271,College,US,1601340993,64.86,-147.8,11.0,57,40,2.1
272,Jeremoabo,BR,1601340993,-10.07,-38.48,20.53,90,22,3.53
273,Faanui,PF,1601340994,-16.48,-151.75,25.71,79,6,8.55
274,Ribeira Grande,PT,1601340994,38.52,-28.7,19.9,85,99,9.33
275,Bambous Virieux,MU,1601340994,-20.34,57.76,23.0,83,75,5.1
276,Nanortalik,GL,1601340994,60.14,-45.24,2.18,77,0,5.08
277,Port Hardy,CA,1601340995,50.7,-127.42,17.0,72,75,1.5
278,Río Gallegos,AR,1601340995,-51.62,-69.22,2.0,69,20,2.1
279,Skeldon,GY,1601340995,5.88,-57.13,25.97,86,38,3.42
280,Kendari,ID,1601340995,-3.94,122.5,27.78,76,100,0.64
281,Nizza Monferrato,IT,1601340996,44.77,8.35,11.11,83,0,0.84
282,Byron Bay,AU,1601340951,-28.65,153.62,22.22,49,90,3.6
283,Cap Malheureux,MU,1601340996,-19.98,57.61,22.78,77,100,3.13
284,Marsh Harbour,BS,1601340996,26.54,-77.06,28.11,75,84,4.73
285,Marzuq,YE,1601340997,14.4,46.47,24.57,53,1,1.23
286,Sorada,IN,1601340997,19.75,84.43,25.68,80,1,1.07
287,Kiryat Gat,IL,1601340997,31.61,34.76,23.89,77,0,1.15
288,Mount Isa,AU,1601340997,-20.73,139.5,31.0,11,80,6.2
289,Ocho Rios,JM,1601340998,18.4,-77.1,25.56,92,20,3.39
290,Bastos,BR,1601340998,-21.92,-50.73,27.29,58,26,3.73
291,Eydhafushi,MV,1601340998,5.1,73.07,27.87,71,86,2.12
292,Port Hedland,AU,1601340999,-20.32,118.57,31.0,12,96,8.7
293,Nchelenge,ZM,1601340999,-9.35,28.73,22.96,75,97,3.65
294,Staryy Nadym,RU,1601340999,65.61,72.68,1.93,86,100,4.02
295,Imbituba,BR,1601340999,-28.24,-48.67,19.0,77,75,3.6
296,Guamúchil,MX,1601340999,25.47,-108.1,34.44,57,0,2.68
297,Salalah,OM,1601341000,17.02,54.09,24.0,83,3,2.1
298,Mount Gambier,AU,1601341000,-37.83,140.77,14.0,58,40,7.7
299,Ust-Nera,RU,1601341000,64.57,143.2,8.15,67,100,2.69
300,Santa Isabel,BR,1601341000,-23.32,-46.22,23.0,77,100,3.1
301,Hamilton,US,1601341001,39.18,-84.53,14.0,87,90,1.78
302,Bryan,US,1601341001,30.67,-96.37,24.0,40,90,2.6
303,Luwuk,ID,1601341001,-0.95,122.79,28.7,64,94,1.81
304,Tiksi,RU,1601340824,71.69,128.87,0.89,85,48,11.94
305,Acopiara,BR,1601341002,-6.1,-39.45,25.49,64,13,3.55
306,Kushmurun,KZ,1601341002,52.45,64.63,9.32,84,0,1.96
307,Mehamn,NO,1601341002,71.04,27.85,8.64,83,5,2.61
308,Gravdal,NO,1601341002,68.12,13.5,11.56,81,88,4.65
309,Weiz,AT,1601341003,47.22,15.62,9.44,30,98,2.05
310,Whitehorse,CA,1601341003,60.72,-135.05,12.0,30,20,9.3
311,Opuwo,NA,1601341003,-18.06,13.84,12.97,37,0,1.21
312,Whyalla,AU,1601341003,-33.03,137.58,18.0,42,75,7.7
313,Weihai,CN,1601341004,37.5,122.11,21.2,65,100,1.89
314,Garner,US,1601341004,35.71,-78.61,22.78,92,89,4.12
315,Mareeba,AU,1601340782,-17.0,145.43,28.0,58,75,7.7
316,Belyy Yar,RU,1601341004,53.6,91.39,1.0,100,100,2.0
317,Henties Bay,NA,1601341005,-22.12,14.28,10.56,88,0,2.79
318,Bonthe,SL,1601341005,7.53,-12.51,24.91,89,100,2.52
319,Puerto Nariño,CO,1601341005,-3.77,-70.38,26.0,94,40,1.5
320,Villa del Rosario,CO,1601341005,7.83,-72.47,23.15,78,99,1.83
321,Huadian,CN,1601341006,42.96,126.75,12.86,78,100,2.95
322,Chokurdakh,RU,1601341006,70.63,147.92,5.57,72,19,2.32
323,Abonnema,NG,1601341007,4.71,6.79,24.07,92,100,2.78
324,Mulchén,CL,1601341007,-37.72,-72.23,8.88,84,100,0.66
325,Robertsport,LR,1601341007,6.75,-11.37,25.73,88,100,3.46
326,Elko,US,1601341007,41.0,-115.5,24.0,13,1,6.7
327,Yellowknife,CA,1601341008,62.46,-114.35,13.0,54,20,6.2
328,Puerto Baquerizo Moreno,EC,1601341008,-0.9,-89.6,19.22,86,58,5.72
329,Ulladulla,AU,1601341008,-35.35,150.47,16.67,48,40,2.6
330,Aromashevo,RU,1601341008,56.86,68.64,3.12,88,20,3.53
331,Vostok,RU,1601341009,46.49,135.88,9.44,80,25,3.13
332,Baft,IR,1601341009,29.23,56.61,14.52,56,0,1.14
333,Piranhas,BR,1601341009,-16.43,-51.82,28.93,29,39,0.69
334,Keti Bandar,PK,1601341009,24.14,67.45,27.0,72,0,4.31
335,Oissel,FR,1601341010,49.33,1.1,15.0,100,90,3.6
336,Daru,PG,1601341010,-9.08,143.21,26.41,84,100,8.64
337,Kasongo-Lunda,CD,1601341010,-6.47,16.82,21.82,89,100,0.38
338,Shinuhayr,AM,1601341010,39.44,46.32,8.57,82,67,0.55
339,Puerto Madero,MX,1601341011,14.72,-92.42,26.0,100,75,2.1
340,Kul'dur,RU,1601341011,49.22,131.63,10.3,61,0,4.61
341,Calhoun,US,1601341011,42.25,-85.0,12.0,87,75,2.6
342,Airai,TL,1601341011,-8.93,125.41,24.75,38,0,2.33
343,Cham,CH,1601341012,47.18,8.46,11.0,87,90,1.5
344,Alofi,NU,1601341012,-19.06,-169.92,28.0,69,75,5.1
345,Ayan,RU,1601341012,56.45,138.17,9.56,80,100,7.26
346,Gornopravdinsk,RU,1601341012,60.05,69.9,0.69,93,100,1.1
347,Bilāspur,IN,1601341013,22.08,82.15,24.33,82,0,1.33
348,Taltal,CL,1601341013,-25.4,-70.48,13.2,75,0,2.27
349,Peniche,PT,1601341013,39.36,-9.38,16.11,88,57,0.89
350,Heihe,CN,1601340950,50.24,127.49,10.0,66,20,3.0
351,Karoi,ZW,1601341014,-16.81,29.69,21.63,50,0,4.18
352,Bānsgāon,IN,1601340826,26.56,83.35,24.0,100,5,1.0
353,Djibouti,DJ,1601341014,11.5,42.5,30.0,79,20,3.51
354,Dallas,US,1601341015,32.77,-96.78,22.0,28,1,4.6
355,Thunder Bay,CA,1601341015,48.4,-89.32,12.22,76,90,4.1
356,Iqaluit,CA,1601341015,63.75,-68.51,-4.0,79,75,3.1
357,Manokwari,ID,1601341015,-0.87,134.08,29.08,64,95,2.06
358,Xining,CN,1601341016,36.62,101.77,11.06,67,33,0.62
359,Ilulissat,GL,1601341016,69.22,-51.1,-2.0,63,87,6.7
360,Baykit,RU,1601341016,61.67,96.37,-0.07,91,56,3.91
361,Green River,US,1601341016,41.53,-109.47,14.0,12,1,4.1
362,Havelock,US,1601341017,34.88,-76.9,24.44,88,1,2.6
363,Bilibino,RU,1601341017,68.05,166.44,6.03,61,42,0.98
364,Rivadavia,AR,1601341017,-33.19,-68.46,21.0,28,0,1.5
365,Bulolo,PG,1601341017,-7.2,146.65,22.23,76,100,0.4
366,Huarmey,PE,1601341017,-10.07,-78.15,16.51,83,7,3.67
367,Eirunepé,BR,1601341018,-6.66,-69.87,23.83,89,12,0.92
368,Anloga,GH,1601341018,5.79,0.9,25.0,88,20,4.1
369,Amurzet,RU,1601341018,47.7,131.1,12.88,65,0,3.38
370,Pedernales,DO,1601341019,18.04,-71.74,28.0,83,40,4.1
371,Ciudad del Carmen,MX,1601340789,18.63,-91.83,31.0,70,75,3.1
372,Ambon City,ID,1601340961,-3.7,128.18,29.0,74,40,1.0
373,Marabu,MY,1601341020,4.41,114.01,28.0,78,20,3.1
374,Ormara,PK,1601341020,25.21,64.64,26.84,79,0,2.83
375,Porbandar,IN,1601341020,21.64,69.61,26.54,73,9,3.36
376,Bireun,ID,1601341013,5.2,96.7,26.89,73,100,2.06
377,Porto San Giorgio,IT,1601341021,43.18,13.79,13.89,44,2,0.89
378,Santa Rosa,PH,1601341021,14.31,121.11,30.0,79,40,1.0
379,Caravelas,BR,1601341022,-17.71,-39.25,23.77,87,2,4.34
380,Lang Son,VN,1601341022,21.83,106.73,24.81,88,98,1.22
381,Mana,GF,1601341022,5.66,-53.78,26.22,83,0,5.92
382,Aripuanã,BR,1601341022,-9.17,-60.63,25.93,64,8,0.31
383,Acolla,PE,1601341023,-11.73,-75.55,8.82,70,94,2.31
384,Acapulco de Juárez,MX,1601341023,16.86,-99.89,29.0,79,75,2.1
385,Soyo,AO,1601341023,-6.13,12.37,23.12,82,99,3.28
386,Burē,ET,1601341024,10.7,37.07,12.41,90,0,1.35
387,Padang,ID,1601341024,-0.95,100.35,26.99,72,96,1.26
388,Mahanoro,MG,1601341024,-19.9,48.8,19.21,90,1,1.26
389,Wewak,PG,1601340770,-3.55,143.63,29.39,65,56,4.44
390,Alice Springs,AU,1601341025,-23.7,133.88,27.0,10,77,7.7
391,Tangshan,CN,1601340744,39.63,118.18,13.26,70,100,6.77
392,Mabaruma,GY,1601341026,8.2,-59.78,24.06,92,7,1.47
393,Namatanai,PG,1601341026,-3.67,152.43,29.73,66,62,0.95
394,Lompoc,US,1601341027,34.64,-120.46,20.0,82,1,6.2
395,Brigantine,US,1601341027,39.41,-74.36,21.11,83,1,3.6
396,Clarence Town,AU,1601341027,-32.58,151.78,20.56,59,40,3.1
397,Umm Kaddadah,SD,1601341027,13.6,26.69,30.32,46,56,4.09
398,Mossamedes,AO,1601341028,-15.2,12.15,17.55,87,100,1.9
399,Loíza,PR,1601341028,18.43,-65.88,27.0,83,75,1.5
400,Nadym,RU,1601341006,65.53,72.52,1.98,86,100,4.11
401,Alta Floresta,BR,1601341029,-9.88,-56.09,26.9,54,40,1.05
402,Cedar City,US,1601341029,37.68,-113.06,21.0,13,1,5.1
403,Malartic,CA,1601341029,48.13,-78.13,15.0,100,90,1.5
404,Dolinsk,RU,1601341030,47.35,142.8,20.0,68,40,7.0
405,Kwang Binh,VN,1601340743,17.48,106.6,27.81,81,100,1.59
406,Kenai,US,1601341030,60.55,-151.26,11.67,76,90,5.1
407,Yenagoa,NG,1601340900,4.92,6.26,23.4,96,91,1.56
408,Aksu,CN,1601341030,41.12,80.26,13.61,36,90,1.39
409,Kabanjahe,ID,1601340734,3.1,98.49,20.88,83,100,0.53
410,Rojhan,PK,1601341031,28.69,69.95,26.83,38,0,2.82
411,Ternate,ID,1601341025,0.8,127.4,28.51,71,87,0.94
412,Grindavik,IS,1601341032,63.84,-22.43,4.0,93,75,3.1
413,Naze,JP,1601341032,28.37,129.48,26.0,69,75,6.7
414,Asău,RO,1601341033,46.43,26.4,13.33,98,100,1.81
415,Tari,NG,1601341034,12.41,4.49,27.31,73,100,4.85
416,Boma,GH,1601341034,7.08,-2.17,21.33,97,100,0.64
417,Biltine,TD,1601341034,14.53,20.92,26.0,66,70,3.15
418,Hope,US,1601341035,33.67,-93.59,19.44,48,0,0.89
419,Kabalo,CD,1601341035,-6.05,26.92,22.01,91,100,1.53
420,Jablah,SY,1601341035,35.36,35.93,24.67,71,0,0.81
421,Penzance,GB,1601341035,50.12,-5.54,12.22,100,27,4.6
422,Qasigiannguit,GL,1601341036,68.82,-51.19,-2.0,63,85,6.7
423,Kharp,RU,1601341036,66.8,65.81,1.49,88,98,1.0
424,Te Anau,NZ,1601341036,-45.42,167.72,1.94,84,99,1.85
425,Ouésso,CG,1601341036,1.61,16.05,20.98,97,95,0.21
426,Bundaberg,AU,1601341036,-24.85,152.35,25.0,46,40,7.7
427,Turan,VN,1601340947,16.07,108.22,31.0,70,20,1.5
428,Dutse,NG,1601341037,11.76,9.34,24.65,72,100,1.82
429,Esil,KZ,1601341037,51.96,66.4,7.88,80,0,1.55
430,Grants Pass,US,1601341038,42.44,-123.33,36.0,8,1,4.6
431,Krasnosel'kup,RU,1601341038,65.7,82.47,-1.23,97,39,3.93
432,Pueblo,US,1601341039,38.25,-104.61,17.0,17,1,3.1
433,Jieshi,CN,1601341039,22.81,115.83,27.22,81,47,5.52
434,Nuuk,GL,1601341039,64.18,-51.72,1.0,80,17,1.0
435,Hofn,IS,1601341039,64.25,-15.21,6.97,77,8,1.84
436,Paso de Patria,AR,1601341040,-27.25,-58.55,20.0,42,0,4.1
437,Port-Gentil,GA,1601341040,-0.72,8.78,24.86,74,88,4.62
438,Yantal',RU,1601341040,56.85,105.25,5.17,74,99,3.76
439,Havre-St-Pierre,CA,1601341040,50.23,-63.6,11.0,93,75,1.0
440,Hendersonville,US,1601341040,36.3,-86.62,16.0,93,1,1.1
441,Birin,NP,1601341041,26.89,88.07,25.0,94,40,0.5
442,Kūhdasht,IR,1601341041,33.53,47.61,14.44,53,0,2.3
443,Mendeleyevsk,RU,1601341041,55.91,52.29,5.0,80,0,3.0
444,Tumut,AU,1601341042,-35.3,148.22,16.68,55,85,3.31
445,Dubbo,AU,1601340815,-32.25,148.62,18.0,52,0,5.1
446,Cleveland,US,1601341043,41.5,-81.7,16.0,82,90,8.2
447,Sakaiminato,JP,1601341043,35.55,133.23,20.0,68,20,1.5
448,Oriximiná,BR,1601341043,-1.77,-55.87,27.21,63,0,2.65
449,Curuguaty,PY,1601341044,-24.47,-55.69,20.17,45,0,1.89
450,Pedregulho,BR,1601341045,-20.26,-47.48,26.8,31,99,1.75
451,Tinton Falls,US,1601341045,40.3,-74.1,21.67,83,1,2.1
452,Nabire,ID,1601341046,-3.37,135.48,30.7,59,15,0.5
453,Saint Andrews,US,1601341046,34.05,-81.13,23.0,83,90,4.6
454,Revelstoke,CA,1601341046,50.98,-118.2,17.0,63,1,2.1
455,Porto-Novo,BJ,1601341046,6.5,2.6,24.64,88,100,3.02
456,Talcahuano,CL,1601341047,-36.72,-73.12,10.0,76,75,4.1
457,Bonavista,CA,1601341047,48.65,-53.11,16.48,87,100,8.06
458,Portland,US,1601341011,45.52,-122.68,28.89,34,0,4.1
459,Ambilobe,MG,1601341048,-13.2,49.05,18.65,86,0,1.32
460,Mhasla,IN,1601341048,18.13,73.12,23.03,90,6,1.67
461,Kamiiso,JP,1601341048,41.82,140.65,18.0,68,20,2.1
462,Saint-Pierre,RE,1601341049,-21.34,55.48,21.0,73,20,3.1
463,Kot Addu,PK,1601341049,30.47,70.97,26.0,69,0,4.31
464,Mari-Turek,RU,1601341049,56.79,49.62,7.43,74,88,1.21
465,Sittwe,MM,1601341049,20.15,92.9,27.22,89,100,2.61
466,Limanowa,PL,1601341050,49.71,20.42,12.22,85,97,0.5
467,San Policarpo,PH,1601341050,12.18,125.51,29.08,71,97,1.05
468,Boguchany,RU,1601341050,58.38,97.45,3.43,91,100,4.5
469,Aklavik,CA,1601341050,68.22,-135.01,3.0,100,90,2.1
470,Jiménez,MX,1601341051,28.33,-105.4,24.0,31,5,5.1
471,Laguna,US,1601341051,38.42,-121.42,38.0,8,1,3.6
472,Marsabit,KE,1601341051,2.33,37.99,18.16,86,86,8.62
473,Lokosovo,RU,1601341051,61.13,74.82,0.49,93,48,2.34
474,Pestravka,RU,1601341051,52.41,49.96,10.54,66,0,2.33
475,Toyooka,JP,1601341052,35.53,134.83,17.0,100,40,1.0
476,Newton,US,1601341052,42.34,-71.21,21.67,93,41,6.2
477,Kirchheim,DE,1601341052,50.83,9.57,6.11,92,0,0.45
478,Maţāy,EG,1601341053,28.42,30.78,27.44,33,0,7.04
